{"features": [{"geometry": {"type": "Point", "coordinates": [-122.3987006, 47.66779289999999]}, "type": "Feature", "properties": {"Total Inspections": 1, "Business Name": "7-ELEVEN STORE #2360-14360A", "Address": "3200 NW 54th St, Seattle, WA 98107, USA", "High Score": 0, "Average Score": 0.0}, "bbox": [-122.4000495802915, 47.66644391970851, -122.3973516197085, 47.6691418802915]}, {"geometry": {"type": "Point", "coordinates": [-122.378556, 47.66900889999999]}, "type": "Feature", "properties": {"Total Inspections": 0, "Business Name": "7-ELEVEN STORE #2360-25525D", "Address": "1550 NW Market St, Seattle, WA 98107, USA", "High Score": 0, "Average Score": 0}, "bbox": [-122.3799049302915, 47.66765991970851, -122.3772069697085, 47.6703578802915]}, {"geometry": {"type": "Point", "coordinates": [-122.370274, 47.66329229999999]}, "type": "Feature", "properties": {"Total Inspections": 1, "Business Name": "7-ELEVEN STORE 2360-32945B", "Address": "999 NW Leary Way, Seattle, WA 98107, USA", "High Score": 20, "Average Score": 20.0}, "bbox": [-122.3716229802915, 47.6619433197085, -122.3689250197085, 47.66464128029149]}, {"geometry": {"type": "Point", "coordinates": [-122.3871015, 47.6704024]}, "type": "Feature", "properties": {"Total Inspections": 1, "Business Name": "AFC SUSHI@QFC #891", "Address": "5700 24th Ave NW, Seattle, WA 98107, USA", "High Score": 5, "Average Score": 5.0}, "bbox": [-122.3884504802915, 47.6690534197085, -122.3857525197085, 47.6717513802915]}, {"geometry": {"type": "Point", "coordinates": [-122.3596694, 47.6540213]}, "type": "Feature", "properties": {"Total Inspections": 0, "Business Name": "ALBERONA", "Address": "3624 Leary Way NW, Seattle, WA 98107, USA", "High Score": 0, "Average Score": 0}, "bbox": [-122.3610183802915, 47.6526723197085, -122.3583204197085, 47.65537028029149]}, {"geometry": {"type": "Point", "coordinates": [-122.382343, 47.6682139]}, "type": "Feature", "properties": {"Total Inspections": 0, "Business Name": "ARASHI RAMEN", "Address": "5401 20th Ave NW, Seattle, WA 98107, USA", "High Score": 0, "Average Score": 0}, "bbox": [-122.3836919802915, 47.6668649197085, -122.3809940197085, 47.6695628802915]}, {"geometry": {"type": "Point", "coordinates": [-122.4082953, 47.67526410000001]}, "type": "Feature", "properties": {"Total Inspections": 1, "Business Name": "BALLARD ELKS #827", "Address": "6411 Seaview Ave NW, Seattle, WA 98107, USA", "High Score": 18, "Average Score": 18.0}, "bbox": [-122.4096442802915, 47.67391511970851, -122.4069463197085, 47.67661308029151]}, {"geometry": {"type": "Point", "coordinates": [-122.3645602, 47.659121]}, "type": "Feature", "properties": {"Total Inspections": 1, "Business Name": "BALLARD GRILL & ALE HOUSE", "Address": "4300 Leary Way NW, Seattle, WA 98107, USA", "High Score": 18, "Average Score": 18.0}, "bbox": [-122.3659091802915, 47.6577720697085, -122.3632112197085, 47.66047003029149]}, {"geometry": {"type": "Point", "coordinates": [-122.3833589, 47.66724989999999]}, "type": "Feature", "properties": {"Total Inspections": 0, "Business Name": "BALLARD LANDMARK INN", "Address": "5433 Leary Ave NW, Seattle, WA 98107, USA", "High Score": 0, "Average Score": 0}, "bbox": [-122.3847078802915, 47.6659009697085, -122.3820099197085, 47.66859893029149]}, {"geometry": {"type": "Point", "coordinates": [-122.3812885, 47.6644941]}, "type": "Feature", "properties": {"Total Inspections": 1, "Business Name": "BALLARD LOFT", "Address": "5105 Ballard Ave NW, Seattle, WA 98107, USA", "High Score": 20, "Average Score": 20.0}, "bbox": [-122.3826374802915, 47.6631451197085, -122.3799395197085, 47.6658430802915]}], "type": "FeatureCollection"}